[
  {
    "id": "1",
    "title": "About Verraten und Verkauft",
    "author": "Unknown",
    "description": "",
    "address": "Unter den Linden 2, Berlin, Germany",
    "lat": 52.51772,
    "lng": 13.39703,
    "startDate": null,
    "midDate": null,
    "endDate": null,
    "category": "",
    "imageUrls": []
  },
  {
    "id": "2",
    "title": "E. Braun & Co. Berlin.",
    "author": "Unknown",
    "description": "",
    "longdescription": "helo",
    "address": "Unter den Linden 2, Berlin, Germany",
    "lat": 52.51772,
    "lng": 13.39703,
    "startDate": "1910-01-01",
    "midDate": "1935-01-01",
    "endDate": "1940-01-01",
    "category": "",
     "imageUrls": [
      "/images/ebraun/ebraun1.png","/images/ebraun/ebraun2.png"
    ]
  },


  {
    "id": "3",
    "title": "A. Breslaur",
    "author": "Unknown",
    "description": "",
    "address": "Französische Straße 46, Mitte, 10117 Berlin, Germany",
    "lat": 52.5149769,
    "lng": 13.3905981,
    "startDate": "1903-01-01",
    "midDate": null,
    "endDate": "1939-01-01",
    "category": "",
    "media": []
  },
  {
    "id": "4",
    "title": "Deutsches Theater, Direktion Max Reinhardt",
    "author": "Unknown",
    "description": "",
    "address": "Schumannstraße 13A, Mitte, 10117 Berlin, Germany",
    "lat": 52.5242794,
    "lng": 13.3819283,
    "startDate": "1907-01-01",
    "midDate": null,
    "endDate": "1934-01-01",
    "category": "",
    "media": []
  },
  {
    "id": "5",
    "title": "Ebro Erste Berliner Dampf-Roßhaarspinnerei AG",
    "author": "Unknown",
    "description": "",
    "address": "Pistoriusstraße 96, Weißensee, 13086 Berlin, Germany",
    "lat": 52.5558562,
    "lng": 13.4374542,
    "startDate": "1923-01-01",
    "midDate": null,
    "endDate": "1938-01-01",
    "category": "",
    "media": []
  },
  {
    "id": "6",
    "title": "Fröhlich & Pelz",
    "author": "Unknown",
    "description": "",
    "address": "Konstanzer Str. 1, 10707 Berlin, Germany",
    "lat": 52.4988328,
    "lng": 13.3120967,
    "startDate": null,
    "midDate": null,
    "endDate": "1938-01-01",
    "category": "",
    "media": []
  },
  {
    "id": "7",
    "title": "Unnamed Location",
    "author": "Unknown",
    "description": "",
    "address": "Ritterstraße 86",
    "lat": 52.5028885,
    "lng": 13.4053578,
    "startDate": null,
    "midDate": null,
    "endDate": "1939-01-01",
    "category": "",
    "media": []
  },
  {
    "id": "8",
    "title": "Alfred Höxter",
    "author": "Unknown",
    "description": "",
    "address": "Wielandstraße 36, Charlottenburg, 10629 Berlin, Germany",
    "lat": 52.5036693,
    "lng": 13.3156879,
    "startDate": "1919-01-01",
    "midDate": null,
    "endDate": "1937-01-01",
    "category": "",
    "media": []
  },
  {
    "id": "9",
    "title": "Und Berliner Produktenbörse",
    "author": "Unknown",
    "description": "",
    "address": "Burgstraße 25, 10178 Berlin, Germany",
    "lat": 52.5213381,
    "lng": 13.4006697,
    "startDate": null,
    "midDate": null,
    "endDate": "1939-01-01",
    "category": "",
    "media": []
  },
  {
    "id": "10",
    "title": "Eiergroß- und Einzelhandlung Jacobowitz & Co.",
    "author": "Unknown",
    "description": "",
    "address": "Bergmannstraße 16, 10961 Berlin, Germany",
    "lat": 52.48916,
    "lng": 13.39182,
    "startDate": "1900-01-01",
    "midDate": null,
    "endDate": "1937-01-01",
    "category": "",
    "media": []
  },
  {
    "id": "11",
    "title": "Kreditwarenhaus Jonass & Co.",
    "author": "Unknown",
    "description": "",
    "address": "Lothringer Straße 1, Berlin, Germany",
    "lat": 52.4784579,
    "lng": 13.5435516,
    "startDate": null,
    "midDate": null,
    "endDate": "1937-01-01",
    "category": "",
    "media": []
  },
  {
    "id": "12",
    "title": "Kutschera Betriebe: Café Wien und Zigeunerkeller",
    "author": "Unknown",
    "description": "",
    "address": "Kurfürstendamm 26, 10719 Berlin, Germany",
    "lat": 52.5035307,
    "lng": 13.3286999,
    "startDate": "1919-01-01",
    "midDate": "1937-01-01",
    "endDate": "1938-01-01",
    "category": "",
    "media": []
  },
  {
    "id": "13",
    "title": "Private Kunst- und Kunstgewerbeschule Reimann",
    "author": "Unknown",
    "description": "",
    "address": "Landshuter Str. 38, 10779 Berlin, Germany",
    "lat": 52.4938465,
    "lng": 13.3389444,
    "startDate": "1909-01-01",
    "midDate": null,
    "endDate": "1938-01-01",
    "category": "",
    "media": []
  },
  {
    "id": "14",
    "title": "Ruilos Knoblauch-Verwertungs-G.m.b.H.",
    "author": "Unknown",
    "description": "",
    "address": "Achenbachstraße 33, 13585 Berlin, Germany",
    "lat": 52.5414151,
    "lng": 13.2030226,
    "startDate": "1921-01-01",
    "midDate": "1933-01-01",
    "endDate": "1934-01-01",
    "category": "",
    "media": []
  },
  {
    "id": "15",
    "title": "Kostümhaus Theaterkunst Hermann J. Kaufmann",
    "author": "Unknown",
    "description": "",
    "address": "Schwedter Str. 9, 10119 Berlin, Germany",
    "lat": 52.5336372,
    "lng": 13.4103444,
    "startDate": null,
    "midDate": null,
    "endDate": "1933-01-01",
    "category": "",
    "media": []
  },
  {
    "id": "16",
    "title": "Gebrüder Eduard und Max Moses Wassermann",
    "author": "Unknown",
    "description": "",
    "address": "Brunnenstraße 71, 13355 Berlin, Germany",
    "lat": 52.5416613,
    "lng": 13.3938031,
    "startDate": null,
    "midDate": null,
    "endDate": "1939-01-01",
    "category": "",
    "media": []
  },
  {
    "id": "17",
    "title": "Unnamed Location 2",
    "author": "Unknown",
    "description": "",
    "address": "Wisbyer Str. 63, 10439 Berlin, Germany",
    "lat": 52.5535854,
    "lng": 13.4193837,
    "startDate": null,
    "midDate": null,
    "endDate": "1940-01-01",
    "category": "",
    "media": []
  },
  {
    "id": "18",
    "title": "Butterhandlung Gebr. Weinberger",
    "author": "Unknown",
    "description": "",
    "address": "Brunnenstraße 188-190, 10119 Berlin, Germany",
    "lat": 52.5308697,
    "lng": 13.3999561,
    "startDate": null,
    "midDate": null,
    "endDate": "1941-01-01",
    "category": "",
    "media": []
  },
  {
    "id": "19",
    "title": "Atelier Yva - Photographie",
    "author": "Unknown",
    "description": "",
    "address": "Schlüterstraße 45, 10707 Berlin, Germany",
    "lat": 52.5005083,
    "lng": 13.3169217,
    "startDate": null,
    "midDate": null,
    "endDate": "1942-01-01",
    "category": "",
    "media": []
  },
  {
    "id": "20",
    "title": "Teppichgroßhandlung Nissim Zacouto",
    "author": "Unknown",
    "description": "",
    "address": "Jägerstraße 61, 10117 Berlin, Germany",
    "lat": 52.5140953,
    "lng": 13.3899596,
    "startDate": null,
    "midDate": null,
    "endDate": "1944-01-01",
    "category": "",
    "media": []
  }
]